"title","record_type","latitude","longitude"
"Amersfoort","fortification","-3.55","128.3"
"Amsterdam Hila","fortification","-3.582671","128.083173"
"Beeverwijk","fortification","-3.646295","128.765269"
"Duurstede","fortification","-3.573846","128.661911"
"Rotterdam Larike","fortification","-3.73333","127.933194"
"Wantrouw","fortification","-3.33834"," 127.5564"
"Zeelandia Oma/Haroeko","fortification","-3.60277","128.417459"
"Middelburg Ambon","fortification","-3.635","128.2375"
"Overburg","fortification","-3.375","127.9794444"
"Den Bosch","fortification","-3.216483","128.175644"
"Defensie","fortification","-3.416666667","127.1333333"
"Ontmoeting","fortification","-7.270832","110.410059"
"Belgica","fortification","-4.526072","129.898894"
"Nassouw Neira","fortification","-4.52822","129.897786"
"Kaap de Goede Hoop","fortification","-33.925694","18.427674"
"Batavia, kasteel","fortification","-6.127672","106.811354"
"Vredenburg","fortification","-7.800285","110.366015"
"Speelwijk","fortification","-6.030973","106.150679"
"Revenge","fortification","-4.518957","129.773855"
"Victoria","fortification","-3.700555556","128.1677778"
"Oostenburgh","fortification","8.540277778","81.23361111"
"Frederick","fortification","8.566666667","81.21666667"
"De Briel Saparoua","fortification","-1.61089","127.400723"
"Delfft Poorto","fortification","-3.562222222","128.5972222"
"Vrydenburg","fortification","0","0"
"Haarlem","fortification","-3.641472","127.968556"
"Hoorn","fortification","-3.517777778","128.4702778"
"Lyden","fortification","-3.601111111","128.1488889"
"Nootwijk omgeving Ambon eiland","fortification","0","0"
"Sonder Naam","fortification","-3.593829","128.026036"
"Velsen","fortification","-3.408888889","127.9169444"
"Vlissingen","fortification","0","0"
"Kuijlenburg","fortification","0","0"
"Hollandia","fortification","-4.549632"," 129.882731"
"Keyk in de pot","fortification","0","0"
"Dannex","fortification","-4.541421","129.952474"
"Voorzightigheid","fortification","-4.526872","129.907494"
"Watervlied","fortification","0","0"
"Wilhelmus Damar","fortification","-1.008201","128.363814"
"Zeezigt Banda","fortification","0","0"
"Delftshaven","fortification","-8.074167","127.151667"
"Diamand","fortification","-6.038175","106.155926"
"Jonge Petrus Albertus","fortification","0","0"
"Hollandia Terlucco","fortification","0.813967","127.388089"
"Valkenburg Lampon Toulang Bawang","fortification","0","0"
"Jacatra","fortification","-6.12864","106.809979"
"Meester Cornelis","fortification","0","0"
"Noortwijck","fortification","-6.167773","106.830801"
"Quaal","fortification","0","0"
"Rijswijk","fortification","-6.167574","106.809979"
"Chavonis","fortification","-33.90662","18.421893"
"Gelderland","fortification","13.41940","80.316321"
"Goet Begin","fortification","-6.891151","110.639677"
"Goet Gevolgh","fortification","-7.2","112.6333333"
"Hersteller","fortification","-7.325048","110.504986"
"Ramsdonk","fortification","-6.966666667","110.4833333"
"Veldwachter","fortification","-7.483333333","110.6666667"
"Purmerent, punt","fortification","0","0"
"Colombo, kasteel","fortification","6.934166667","79.84611111"
"Rotterdam, kasteel Ujung Pandang","fortification","-5.13418","119.405556"
"Mandasa","fortification","0","0"
"Valkenburgh schans Maros","fortification","-4.983333333","119.5833333"
"Voorzorg","fortification","0","0"
"Waekzaemheyd","fortification","0","0"
"Victoria Malabaar","fortification","0","0"
"Vreede Malabaar","fortification","0","0"
"Wilhelmus Chowghat","fortification","10.525102","76.042137"
"Zeeborg","fortification","8.881128","76.568086"
"Cronenburg","fortification","-1.35","100.566667"
"Vredenborg Priaman","fortification","-0.6","100.15"
"Amsterdam Manado","fortification","1.533333333","124.9166667"
"Den Briel Obi","fortification","-1.520913","127.411702"
"Doornenburg","fortification","2.745672","125.36057"
"Oranje Ternate","fortification","0.8","127.3833333"
"Zeelandia Formosa","fortification","23.0018","120.160903"
"Zeven Provincieën","fortification","0","0"
"Gustavus","fortification","22.890784","88.391999"
"Vijfhoek","fortification","0","0"
"Barneveld","fortification","-0.624097","127.481784"
"Duinhoop","fortification","0","0"
"Frederik Hendrik Mauritius","fortification","-20.37521","57.722747"
"Coornhoop","fortification","0","0"
"Pijl","fortification","0","0"
"Vijf Sinnen","fortification","10.75","79.83333333"
"fort Provintia","fortification","22.9971","120.20225"
"Zoutelande","fortification","-6.116666667","106.7833333"
"Nieuwendam","fortification","0","0"
"Zevenhoek","fortification","0","0"
"Wilgenburg","fortification","0","0"
"Belvidere","fortification","-7.233333333","112.75"
"Providentie","fortification","-7.233333333","112.75"
"Concordia","fortification","-10.14679","123.639382"
"Hollandia Saparua/Honimoa","fortification","-3.583796","128.68687"
"Hardenberg","fortification","-3.349778","127.942815"
"Storm","fortification","-4.566722","129.920694"
"Nassau Moti","fortification","0.479092","127.418098"
"Verwachting de","fortification","-2.05","125.9833333"
"Starfort","fortification","5.95","80.53333333"
"Altingburg","fortification","3.341437","101.244892"
"Lijdzaamheid Maputo","fortification","-25.96666667","32.58333333"
"Amsterdam, pakhuis Bangkok","fortification","13.73333333","100.5"
"Oosteinde","fortification","-3.810367","130.696396"
"Mauritius Makian","fortification","0.373214","127.418724"
"Fredrik Hendrik","fortification","-8.436248","123.116536"
"Concordia Waijer","fortification","-4.551057","129.949438"
"Utrecht","fortification","3.4","101.2"
"Hammenhiel","fortification","9.71169","79.84794"
"Defensie Salayar","fortification","0","0"
"Carolina","fortification","-5.557834","120.19725"
"Halve maan","fortification","0","0"
"Mosselstein","fortification","29.23333333","50.33333333"
"Nieuw-Orangieën","fortification","0","0"
"Amsterdam Kormantijn","fortification","5.182842","-1.114697"
"Crevecoeur","fortification","5.53865","-0.20815"
"Lijdzaamheid","fortification","5.28532","-0.72939"
"St. Antonio","fortification","4.868","-2.2444"
"Coenraadsburg","fortification","5.084794",".-1.350873"
"St. George","fortification","5.082676","-1.34808"
"Groot Fredericksborg","fortification","4.791114","-2.134009"
"Oranje Sekondi","fortification","4.935696","-1.707317"
"Goede Hoop Senya Beraku","fortification","5.387507","-0.489729"
"St. Sebastian","fortification","5.029111","-1.621061"
"Batenstein","fortification","4.821631","-1.921191"
"Nassau Mourée","fortification","5.13333","-1.2"
"Vredenburg Komenda","fortification","5.058333"," -1.466667"
"Philippina","fortification","2.386835","101.969427"
"St. Angelo","fortification","11.854216","75.371895"
"Blekenburg","fortification","0","0"
"Keeten","fortification","0","0"
"Phillipina Buitenzorg","fortification","0","0"
"Zanthoop","fortification","0","0"
"Kijckuit","fortification","0","0"
"Dieren","fortification","0","0"
"Beschermingh","fortification","-6.746968","108.594249"
"Vila Velha","fortification","-10.33333333","-36.6"
"Nassau Goree","fortification","14.668659","-17.400097"
"Santa Cruz","fortification","12.305161","-69.14838"
"Fort zonder naam Arguin","fortification","20.612005","-16.447695"
"Mols","fortification","-9.333333","13.166667"
"Aardenburgh","fortification","-8.807725","13.223051"
"Orange Goree","fortification","14.664596","-17.398004"
"Ruychaver","fortification","5.033333333","-2.2"
"Carolusburg","fortification","5.103562","-1.241147"
"Elise Carthago","fortification","4.893","-2.267565"
"Dorothea","fortification","4.7526505","-2.03565"
"Witsen","fortification","4.916666667","-1.75"
"Goede Hoop Egya","fortification","5.186752","-1.101812"
"Kpone bij","fortification","5.688875","0.062538"
"Zeelandia Jaquim","fortification","6.366666667","2.35"
"Singelenburgh","fortification","5.921362","0.993564"
"Nassau Albany","fortification","42.66666667","-73.81666667"
"Oranje Beverwijck","fortification","42.66666667","-73.81666667"
"Amsterdam New York","fortification","40.707136","-74.011985"
"Beversreede","fortification","40.11666667","-75.25"
"Huis ter Hope Hartford","fortification","41.75","-72.7"
"Compagniesfort Whorekill","fortification","0","0"
"Christina Wilmington","fortification","39.76666667","-75.51666667"
"Nya Korsholm","fortification","40.1","-75.25"
"Casimir","fortification","39.66666667","-75.56666667"
"Nassau Gloucester City","fortification","39.885965","-75.127823"
"Wilhelmus Prince's eiland","fortification","40.091667","-74.845833"
"Vaersenbaai","fortification","12.160501","-69.003912"
"Amsterdam Punda","fortification","12.104625","-68.934204"
"Waterfort, Punda","fortification","12.103608","-68.933545"
"Graaf van Buren Punda","fortification","12.096563","-68.913817"
"Kreek, batterij de","fortification","12.11666667","-68.95"
"Punta Brava, batterij","fortification","12.11666667","-68.95"
"Santa Anna's dorp bij","fortification","12.11666667","-68.91666667"
"Wilschutsborg","fortification","12.11666667","-68.91666667"
"Collenborg","fortification","12.050039.","-68.829711"
"Westpunt de","fortification","12.370149","-69.152968"
"Piscaderisbaai","fortification","12.121137","-68.969243"
"Porto Marie","fortification","12.220911","-69.08581"
"Crabbebaai","fortification","12.317944","-69.150396"
"Knipbaai","fortification","12.346275","-69.154564"
"St. Michiel","fortification","12.14362","-68.999655"
"Beekenburg","fortification","12.072513","-68.861938"
"Bullebaai","fortification","12.169736","-69.01175"
"Amsterdam, St. Maarten","fortification","18.014832","-63.059528"
"Pieter, batterij","fortification","18.016345","-63.041314"
"Bel Air, schietpost","fortification","18.027483","-63.059275"
"Slachtbaai","fortification","12.26666667","-68.36666667"
"Cabajé","fortification","0","0"
"Carpata","fortification","12.220083","-68.352054"
"Barbuda","fortification","0","0"
"Blokhuis, Curacao","fortification","12.06666667","-68.83333333"
"Uitkijk, batterij","fortification","12.067865","-68.861136"
"Tolcksburg de","fortification","12.06666667","-68.85"
"Barcadera","fortification","0","0"
"Chitchie","fortification","17.469739","-62.960245"
"Nassau St. Eustatius","fortification","17.46815","-62.97977"
"Coculusbaai","fortification","0","0"
"Windt de","fortification","17.465722","-62.963919"
"Zeelandia St. Eustatius","fortification","17.5","-62.96666667"
"Nieuwe","fortification","17.616814","-63.251435"
"Hollandia St. Eustatius","fortification","17.46666667","-62.96666667"
"Dolin","fortification","17.46666667","-62.96666667"
"Tommeldijk","fortification","17.502301","-62.999861"
"Natural fort","fortification","17.616814","-63.251435"
"Nederlands Anguilla","fortification","18.231634","-63.034773"
"Jussac de","fortification","17.496002","-62.993209"
"Panga","fortification","17.494509","-62.989206"
"Jenkinsbaai","fortification","17.513695","-62.999182"
"Frederik St. Eustatius","fortification","17.465262","-62.971589"
"Four Gun Battery","fortification","17.484059","-62.987956"
"Lucia","fortification","17.492998","-62.956630"
"Corre Correbaai","fortification","17.481401","-62.946946"
"Concordiabaai","fortification","17.501282","-62.973741"
"Schildpadsbaai","fortification","17.46666667","-62.96666667"
"Oranje Amazone","fortification","0","0"
"Jacobus","fortification","11.221679","-60.779901"
"Bennet","fortification","11.207319","-60.78579"
"Lampsinsberg","fortification","11.16666667","-60.71666667"
"Sterreschans","fortification","11.18337","-60.734839"
"Sterrenschansje bij fort","fortification","11.16666667","-60.71666667"
"Catharina","fortification","-6.969086","-34.840265"
"S. Antonio (do Norte)","fortification","-6.966594","-34.85513"
"Sao Luis","fortification","-2.566666667","-44.26666667"
"Restinga","fortification","-6.978686","-34.848731"
"Oranje Itamaracà","fortification","-7.810281","-34.83914"
"Ceulen","fortification","-5.756375","-35.194992"
"Siara","fortification","-3.706861","-38.595078"
"Schoonenburg","fortification","-3.723003","-38.525358"
"Tocujos eiland op","fortification","0","0"
"Adriaensz.","fortification","0","0"
"Nassau Amazone","fortification","0","0"
"Brun do","fortification","-8.05286","-34.870863"
"Buraco","fortification","-8.1","-34.88333333"
"Ernest","fortification","-8.060992","-34.876866"
"Waerdenburgh","fortification","-8.1","-34.88333333"
"Frederik Hendrik Boavista","fortification","-8.071758","-34.880868"
"[Leeg]","fortification","0","0"
"Effogados de","fortification","-8.1","-34.88333333"
"Kijck in de pot Affogados","fortification","-8.1","-34.88333333"
"Real","fortification","0","0"
"Rio Formoso aan","fortification","-8.583333333","-35.06666667"
"Nazareth","fortification","-8.35855","-34.945059"
"Domburg","fortification","-8.372811","-34.959033"
"Pontael","fortification","-8.363289","-34.95723"
"Barretta","fortification","-8.091267","-34.881349"
"Paripueira bij","fortification","-9.466666667","-35.53333333"
"Suassy","fortification","-9.462312","-35.541698"
"Bona Ventura","fortification","-9.033333333","-35.4"
"Nieuwe Kerk","fortification","-9.033333333","-35.4"
"Rio S. Francisco, wambuis","fortification","-10.307066","-36.587631"
"Nossa Senhora dos Remedios","fortification","-3.833333333","-32.41666667"
"S. Cristovão bij","fortification","-10.98333333","-37.16666667"
"Maurits","fortification","-10.292393","-36.584884"
"San Felipe del Morro","fortification","18.471102","-66.124184"
"Recovery","fortification","18.386472","-64.676015"
"Burt","fortification","18.4129","-64.614539"
"Valdivia, schans bij","fortification","-39.76666667","-73.25"
"Huis Nabij","fortification","0","0"
"Zeelandia Essequibo","fortification","6.779128","-58.512973"
"Nova Zeelandia","fortification","0","0"
"Samson, redoute","fortification","5.986284","-57.6454"
"Wironje kreek, redoute bij","fortification","0","0"
"Andries","fortification","6.266666667","-57.51666667"
"Nassau Berbice","fortification","5.75","-57.71666667"
"Concordia post bij","fortification","5.716666667","-57.5"
"Amsterdam Nieuw Amsterdam","fortification","5.888229","-55.091663"
"Para","fortification","5.748391","-55.129291"
"Zeelandia Paramaribo","fortification","5.825188","-55.149705"
"Sommelsdijk","fortification","5.86199","-54.865408"
"S. Louis Cayenne","fortification","4.937411","-52.337361"
"Retrachement het","fortification","12.11666667","-68.91666667"
"Oranje Oranjestad","fortification","17.481968","-62.986531"
"Aan de baai","fortification","17.46666667","-62.96666667"
"Bouillé","fortification","17.474488","-62.985121"
"Amsterdam Sint Eustatius","fortification","17.486185","-62.992575"
"Rotterdam Sint Eustatius","fortification","17.48653","-62.992717"
"Royale","fortification","17.487566","-62.99282"
"Piet Heijn","fortification","5.955766","-55.149493"
"Fort zonder naam","fortification","0","0"
"Topayos rivier","fortification","0","0"
"Nossa Senhora da Conceicao","fortification","-7.808724","-34.858408"
"Huijs ter Hooge","fortification","0","0"
"Tent Bay, oude fort","fortification","17.61666667","-63.25"
"Amsterdam Kaap de Goede Hoop","fortification","0","0"
"Madasera","fortification","0","0"
"Knok de","fortification","0","0"
"Sterrenschans Batavia","fortification","-0.624097","127.481784"
"Carganto","fortification","-5.555493","120.185788"
"Batenburg","fortification","-6.142628","106.81437"
"Zeeburgh","fortification","0","0"
"Kijk in de Pot Goenong Api","fortification","0","0"
"Arraial do Bom Jesus","fortification","-8.056389","-34.930833"
"Sint George","fortification","0","0"
"Waterkasteel","fortification","-8.054587","-34.865247"
"Kyk Overal","fortification","6.435315","-58.614392"
"Leyden, redoute","fortification","5.931657","-55.130281"
"Purmerent, redoute","fortification","0","0"
"Groote Tanjong","fortification","0","0"
"Juffrouw de Bruyn","fortification","0","0"
"Anthonio","fortification","25.17541","121.432971"
"Utrecht (Formosa)","fortification","0","0"
"Padjajaram","fortification","0","0"
"Monte Calvário (fort)","fortification","0","0"
"Nassauw Gorontalo","fortification","0","0"
"Fort zonder naam Marbongh","fortification","0","0"
"Mariecque","fortification","0.68524","127.36897"
"Batterij aan de Motkreek","fortification","5.985669","-54.859214"
"Nassau","fortification","0","0"
"Zoutman","fortification","12.517824","-70.035703"
"Kostverlooren","fortification","0","0"
"Fort zonder naam, Naos eiland","fortification","0","0"
"Kijck in de pot Solor","fortification","0","0"
"Accra","location","5.557777778","-0.202777778"
"Aden","location","12.801758","45.034275"
"Ahmadabad","location","23.048776","72.583809"
"Ambon","location","-3.706666667","128.1647222"
"Banten","location","-6.027384","106.194162"
"Calicut","location","11.258004","75.777161"
"Cannanore","location","11.87827","75.373564"
"Cape Town","location","-33.925628","18.42355"
"Chunchura","location","22.890013","88.401647"
"Cochin","location","9.939431","76.258793"
"Colombo","location","6.933669","79.844327"
"Demak","location","-6.892685","110.639505"
"Galle","location","6.033871","80.217612"
"Gresik","location","-7.158806","112.646055"
"Jaffna","location","9.668277","80.00423"
"Jakarta","location","-6.131765","106.812079"
"Jepara","location","-6.593503","110.668108"
"Maros","location","-5.005104","119.572263"
"Matara","location","5.9509","80.536451"
"Melaka","location","2.196727","102.253075"
"Nagasaki","location","32.742923","129.872814"
"Negombo","location","7.216712","79.839592"
"Palembang","location","-2.97047","104.748917"
"Passo","location","-3.626541","128.245676"
"Pulicat","location","13.417423","80.317168"
"Salatiga","location","-7.342122","110.504594"
"Sawaij","location","-2.95877","129.181702"
"Surabaya","location","-7.286701","112.733946"
"Surat","location","21.195936","72.818828"
"Tegal","location","-6.866013","109.133112"
"Tuticorin","location","8.81","78.14666667"
"Makassar","location","-5.129414","119.415522"
"Haruku","location","-3.594289","128.416729"
"Liang","location","-3.508966","128.318324"
"Lima","location","-3.643115","127.968307"
"Ai","location","-4.528169","129.773569"
"Bandanaira","location","-4.526458","129.902759"
"Run","location","-4.553153","129.685163"
"Rozengain","location","-4.59","130.04"
"Banjarmasin","location","-3.319189","114.591079"
"Patna","location","25.611306","85.141679"
"Cirebon","location","-6.716182","108.566244"
"Cranganur","location","10.196296","76.211747"
"Abobo","location","-3.692153","128.789113"
"Akoon","location","-3.675044","128.810586"
"Alang","location","-3.774846","128.001916"
"Ambelau","location","-3.843359","127.189693"
"Ameth","location","-3.647923","128.805608"
"Balsetoe","location","0","0"
"Buru","location","-3.354405","126.721344"
"Kaibobo","location","-3.21456","128.176432"
"Said","location","-3.593775","128.03431"
"Hila","location","-3.581419","128.08627"
"Nollot","location","-3.511111111","128.6855556"
"Pia","location","-3.5344","128.64363"
"Saparua eiland","location","-3.572702","128.655024"
"Zaane","location","0","0"
"Kalutara","location","6.579946","79.964111"
"Hormoz","location","27.067686","54.463432"
"Kanton/Guangzhou","location","23.146042","113.260689"
"Larike","location","-3.755191","127.930505"
"Luhu","location","-3.38765","127.982218"
"Laäla","location","-3.156666667","128.0733333"
"Pantattaripu","location","9.783333333","79.95"
"Ayutthaya","location","14.355202","100.577245"
"Mullipattu","location","0","0"
"Booi","location","-3.609949","128.661869"
"Hatoena","location","-3.408888889","127.9169444"
"Pasuruan","location","-7.643836","112.904084"
"Hammenhiel","location","9.711622","79.847881"
"Bandung","location","-6.913689","107.609875"
"Jogyakarta","location","-7.79659","110.368345"
"Khum Peam Lvek","location","11.88333333","104.7666667"
"Ungaran","location","-6.968686","110.416689"
"Stellenbosch","location","-33.934103","18.856266"
"Colesberg","location","-30.719112","25.097744"
"Somerset West","location","-34.07328","18.837748"
"Agra","location","27.179523","78.007708"
"Vengurla","location","15.88333333","73.68333333"
"Quilon","location","8.882019","76.592016"
"Robbeneiland","location","-33.805896","18.370671"
"Maputo","location","-25.96666667","32.58333333"
"Tulbagh","location","-33.285533","19.142289"
"Trincomalee","location","8.570555556","81.23083333"
"Katuwana","location","6.267949","80.689931"
"Tangalla","location","6.026388889","80.79055556"
"Onrus","location","0","0"
"Swellendam","location","-34.024352","20.436945"
"Semarang","location","-6.965619","110.421467"
"Nusa Laut","location","-3.666666667","128.7833333"
"Noessanive","location","-3.784631","128.08715"
"Nagappattinam","location","10.764993","79.84732"
"Mannar","location","8.981393","79.910574"
"Cipir/Pulau Kahyangan","location","0","0"
"Cipanas","location","0","0"
"Cilincing","location","0","0"
"Kediri","location","0","0"
"Purwakarta","location","0","0"
"Surakarta","location","-7.56195","110.814915"
"Tanjung Timur","location","-6.303526","106.860316"
"Babakan","location","0","0"
"Babahan","location","0","0"
"Gunung Api","location","-4.521153","129.879484"
"Banda Lontar","location","-4.546629","129.879338"
"Kayeli","location","-3.383709","127.113519"
"Tidore","location","0.666666667","127.4166667"
"Constantia","location","-34.019354","18.44175"
"Paarl","location","-33.726553","18.960843"
"Langebaan","location","-33.093627","18.039157"
"Middelburg (Zuid-Afrika)","location","0","0"
"Bogor","location","-6.589965","106.792724"
"Campong Baro","location","0","0"
"Bato Tulis","location","0","0"
"Wynberg","location","-34.007775","18.466802"
"Worcester","location","-33.643849","19.442611"
"Graaff Reinet","location","-32.2507","24.538293"
"Saldanha","location","-33.00672","17.943063"
"Pretoria","location","-25.729937","28.218799"
"Wellington","location","-33.642277","19.008307"
"Ambalangoda","location","6.23636","80.052799"
"Kalpitya","location","8.23604","79.76253"
"Batticaloa","location","7.711555","81.697875"
"Hatoenoeko","location","-3.595277778","128.0475"
"Hitu-lama","location","-3.585081","128.176281"
"Hutumuri","location","-3.697142","128.284067"
"Kohao","location","0","0"
"Loki","location","-3.307621","128.058944"
"Mamala","location","-3.560517","128.188344"
"Manipa","location","-3.3","127.55"
"Molana","location","0","0"
"Nalahia","location","0","0"
"Ourien, Ambon","location","-3.666928","127.95011"
"Ouw","location","0","0"
"Porto","location","-3.568933","128.607473"
"Jailolo","location","1.065012","127.466969"
"Sirri Sorrij","location","-3.585852","128.697814"
"Wokam","location","-5.772793","134.384708"
"Babar","location","-8","129.7833333"
"Celam","location","0","0"
"Commer","location","0","0"
"Damar","location","-7.116666667","128.6666667"
"Lacij","location","0","0"
"Laoutang","location","0","0"
"Leti","location","-8.166666667","127.6666667"
"Moa","location","-8.183333333","127.9"
"Nila","location","-6.739281","129.514675"
"Ourien, Lonthor","location","-4.567124","129.920228"
"Roma","location","-7.566666667","127.45"
"Teun","location","-6.972776","129.14011"
"Wajer","location","0","0"
"Wetar","location","-7.716666667","126.3666667"
"Nzwani","location","-12.159835","44.401903"
"Anyar","location","-6.052564","105.92278"
"Borne","location","0","0"
"Kotaagung","location","-5.5","104.65"
"Lampong Toulang Bauang","location","-4.5","105.3166667"
"Carita","location","0","0"
"Anciol","location","-6.125194","106.840832"
"Anckee","location","-6.143392","106.775969"
"Bekasi","location","-6.089691","106.99271"
"Banjoewangie (West-Java)","location","0","0"
"Damar-Besar","location","0","0"
"Maronda","location","-6.110856","106.972132"
"Purmenent","location","0","0"
"Sampora","location","0","0"
"Tangerang","location","-6.175734","106.633662"
"Tanjong Poura","location","-6.264878","107.289255"
"Tjeparra","location","0","0"
"Machilipatnam","location","16.187475","81.134348"
"Kundapura","location","13.625593","74.69128"
"Baleshwar","location","21.493644","86.930666"
"Cariemabaath","location","0","0"
"Cossimbazar","location","0","0"
"Dhaka","location","23.70851","90.406823"
"Hougly","location","22.898553","88.401654"
"Murshidabad","location","24.176747","88.271577"
"Rajmahal","location","25.055434","87.829449"
"Chapra","location","25.781344","84.727764"
"Iranativu, North and South","location","0","0"
"Akuressa","location","6.099975","80.477378"
"Alandale","location","0","0"
"Alvatier","location","0","0"
"Arippu","location","8.793984","79.927593"
"Weligama","location","5.973757","80.428823"
"Bentota","location","6.420475","79.998829"
"Cape Comorin","location","8.07988","77.549644"
"Punneikayal","location","0","0"
"Delft island","location","9.533333333","79.66666667"
"Phalta","location","22.295966","88.122962"
"Colombo Gammo","location","0","0"
"Nagercoil","location","8.176829","77.436175"
"Dwars in de weg","location","8.54321","81.214964"
"Goenaville","location","0","0"
"Hakmana","location","6.083098","80.648357"
"Hanwella","location","6.909205","80.082369"
"Hultsdorf","location","6.936939","79.862042"
"Kilakkarai","location","9.229961","78.785176"
"Kandy","location","7.286944444","80.6275"
"Kirinda","location","6.214197","81.336375"
"Kaddaiparichchan","location","8.450555556","81.26305556"
"Manapaar","location","0","0"
"Malwanne","location","6.948707","80.015652"
"Mantota","location","9.003055556","80.01861111"
"Mapulegam","location","6.118888889","80.30944444"
"Mullaittivu","location","9.268422","80.814986"
"Nackelgamma","location","0","0"
"Nendemale","location","0","0"
"Nielwelle","location","6.012222222","80.78111111"
"Patchelapallij","location","0","0"
"Pitigala","location","6.343877","80.223302"
"Pooneryn","location","9.501388889","80.20666667"
"Puttalam","location","8.033585","79.826142"
"Retaal","location","0","0"
"Chilaw","location","7.576925","79.793086"
"Soetwaters Eijlant","location","0","0"
"St. Bastiaan","location","0","0"
"Cuddalore","location","11.71578","79.769061"
"Indramayu","location","-6.388574","108.289561"
"Galoe","location","0","0"
"Limbangan","location","-6.388319","108.39853"
"Pamotangh","location","0","0"
"Preangerlanden","location","0","0"
"Sukaraja","location","0","0"
"Sumedang","location","-6.838658","107.925024"
"Bimlipatam","location","17.88664","83.451608"
"Conjemere","location","0","0"
"Draksharam","location","0","0"
"Golkonda","location","17.385023","78.404013"
"Kakinada","location","16.959852","82.239776"
"Kokinaan","location","0","0"
"Palakollu","location","16.520037","81.725864"
"Pondicherry","location","11.938234","79.827976"
"Parangipettai","location","11.49138","79.760177"
"Sadras","location","12.526789","80.163324"
"Rembang","location","-6.704887","111.341579"
"Adirogo","location","0","0"
"Bangkalan","location","-7.025679","112.7749031"
"Batoe Oelo","location","0","0"
"Bawean","location","-5.808658","112.636242"
"Boyolali","location","-7.483333333","110.6666667"
"Brebes","location","-6.86678","109.036546"
"Kalbut","location","0","0"
"Kartosuro","location","0","0"
"Juwana","location","-6.717375","111.142058"
"Malang","location","-7.980273","112.626843"
"Dasseneiland","location","-33.423705","18.086572"
"Oelopampang","location","0","0"
"Panarukan","location","-7.680861","113.943"
"Parang","location","0","0"
"Pekalongan","location","-6.879051","109.676113"
"Sumenep","location","-7.00353","113.860574"
"Buffeljagsrivier","location","-34.045406","20.534277"
"Agter de Steenbergen aan Baaij Fals","location","0","0"
"Clapmuts","location","-33.808178","18.865142"
"Gansche Craal","location","0","0"
"Groene Cloof","location","0","0"
"Leeukop","location","-33.93486","18.388644"
"Muizenberg","location","-34.096454","18.495383"
"Niguasbosch","location","0","0"
"Seekoeivlei","location","-34.05","18.51666667"
"Simon' s Town","location","-34.185252","18.424391"
"Hottentots-Holland","location","0","0"
"Vishoek","location","-34.136673","18.429691"
"Riviersonderend","location","-34.150259","19.914197"
"Land van Waveren","location","0","0"
"Bima","location","-8.454459","118.726058"
"Bulukumba","location","-5.552431","120.195572"
"Bantaeng","location","-5.546408","119.949625"
"Baubau","location","-5.460973","122.596772"
"Goa (Sulawesi)","location","0","0"
"Salayar","location","-6.118025","120.476561"
"Siam, Maccassar","location","0","0"
"Aijcotta","location","0","0"
"Alleppey","location","9.493297","76.32901"
"Kayankulam","location","9.17167","76.500535"
"Chendamangalam","location","10.162504","76.230737"
"Chowghat","location","10.580803","76.018939"
"Madalagam","location","0","0"
"Manicoorde","location","0","0"
"Matricotta","location","0","0"
"Ponnani","location","10.776903","75.920835"
"Paponette","location","0","0"
"Purakkad","location","0","0"
"St. Andries","location","0","0"
"Callewette","location","9.967371","76.251547"
"Boucquetchina","location","0","0"
"Pera","location","0","0"
"Poelo Gontong","location","0","0"
"Tanjungpinang","location","0.917148","104.447508"
"Kuala Selangor","location","3.326472","101.257696"
"Al Mukha","location","13.319555","43.243425"
"Jambi","location","-1.592169","103.61583"
"Al Basrah","location","30.523193","47.83468"
"Bushehr","location","28.990874","50.830904"
"Bandar-e Abbas","location","27.178951","56.275485"
"Kharg","location","29.253156","50.325007"
"Kerman","location","30.3","57.08333333"
"Esfahan","location","32.649132","51.679244"
"Pontianak","location","-0.022745","109.336267"
"Nakhon Si Thammarat","location","8.465581","99.953384"
"Bharuch","location","21.713258","72.99963"
"Kets Mandui","location","0","0"
"Suvali","location","21.162002","72.634048"
"Airhaji","location","0","0"
"Barus","location","2.018663","98.413782"
"Airbangis","location","0.197582","99.381609"
"Hatuwa","location","0","0"
"Painan","location","-1.35085","100.574757"
"Padang","location","-0.947528","100.355244"
"Tiku","location","0","0"
"Pariaman","location","-0.627581","100.117886"
"Natal","location","0.555015","99.11341"
"Indrapura","location","-2.03925","100.948877"
"Tappenoulie","location","0","0"
"Moaratanjong","location","0","0"
"Hanoi","location","21.013368","105.857964"
"Kupang","location","-10.158998","123.598051"
"Amurang","location","1.216301","124.598494"
"Manado","location","1.486936","124.838133"
"Banggai","location","-1.611345","123.558311"
"Bintauna","location","0.880588","123.4552969"
"Loji","location","-1.504954","127.544174"
"Buol","location","0","0"
"Siau","location","2.75","125.4166667"
"Dodinga","location","0.856644","127.643917"
"Galela","location","1.823766","127.84049"
"Castela","location","0.755717","127.324626"
"Gorontalo","location","0.542442","123.059134"
"Ternate","location","0.8","127.3833333"
"Kema","location","1.3648789","125.075691"
"Limboto","location","0.638117","122.926687"
"Bacan","location","-0.419537","127.42555"
"Makian","location","0.333333333","127.3666667"
"Parigi","location","-0.839394","120.187633"
"Pattani","location","6.869635","101.250422"
"Sanana","location","-2.05589","125.980039"
"Voorburg","location","0","0"
"Tolitoli","location","1.039696","120.815313"
"Gitaislam","location","0","0"
"Terlucco","location","0","0"
"Tamma Callang","location","0","0"
"Taliabu","location","0","0"
"Tahuna","location","3.577243","125.573459"
"Mahebourg","location","-20.406662","57.700524"
"Tatta","location","24.744493","67.924147"
"Puger","location","-8.372099","113.476052"
"Laha","location","-3.701403","128.103111"
"Waai","location","-3.565078","128.320777"
"Ulat","location","-3.600757","128.71105"
"Kwandang","location","0.899726","122.951245"
"Gintota","location","6.061526","80.179031"
"Marichchukkaddi","location","8.580631","79.945948"
"Bhaij Fals","location","0","0"
"Waeputih","location","-3.546146","127.9211"
"Hambantota","location","6.123871","81.123683"
"onbekend Zuid-Afrika","location","0","0"
"Bloemfontein","location","-29.116667","26.216667"
"Franschhoek","location","-33.908854","19.119251"
"Groote Schuur","location","0","0"
"Elmina","location","5.086841","-1.350489"
"Anomabu","location","5.13","-1.2"
"Apam","location","5.28","-0.74"
"Axim","location","4.871535","-2.240038"
"Beyin","location","5.000744","-2.645481"
"Butri","location","4.803371","-1.939455"
"Cape Coast","location","5.105","-1.2405"
"Dixcove","location","4.791568","-1.950381"
"Goeree Island","location","14.6675879","-17.3989319"
"Komenda","location","5.058798345","-1.466666667"
"Mouri","location","5.130398","-1.199809"
"Princes Town","location","4.794732683","-2.13529586"
"Sekondi","location","4.938323","-1.708982"
"Senya Beraku","location","5.385","-0.495"
"Shama","location","5.02","-1.625"
"Kronendal","location","0","0"
"Buitenverwachting","location","0","0"
"Cuijlen de","location","0","0"
"Malmesbury","location","-33.45837","18.721333"
"Fuzhou","location","26.058633","119.306345"
"Qeshm","location","26.95941","56.273167"
"Sharkej","location","0","0"
"Khambhat","location","22.313912","72.620094"
"Muscat","location","23.596239","58.394709"
"Mandalay","location","21.944797","96.077127"
"Gulegule","location","-3.810559","130.697122"
"Raiebaagh","location","0","0"
"Banda Aceh","location","5.557557","95.314264"
"Pegu","location","17.337202","96.495266"
"Lawayang","location","0","0"
"Chi-lung","location","25.130521","121.740088"
"Hoop op Constantia","location","-34.03888","18.412975"
"Mangalore","location","12.848833","74.838645"
"Pallippuram","location","0","0"
"Padricotta Parri","location","0","0"
"Edatouritti","location","0","0"
"Maparany","location","0","0"
"Poedoecoenatte","location","0","0"
"Aynamaka","location","0","0"
"Poetenbare","location","0","0"
"Nallur","location","0","0"
"Arandere","location","0","0"
"Avissawella","location","6.951796","80.212616"
"Ruwanwella","location","0","0"
"Tontotte","location","0","0"
"Chinnecallette Delle","location","0","0"
"Erkelenchene","location","0","0"
"Pittuancarre","location","0","0"
"Hirado","location","33.37273","129.55746"
"Tan-shui","location","25.169912","121.440282"
"Missier","location","0","0"
"Tabanio","location","0","0"
"Soecawayana","location","0","0"
"Kajoe Meirah","location","0","0"
"Tafasoho","location","0.3333365","127.346277"
"Ngofakiaha","location","0.36628","127.419176"
"Tabelolo","location","0","0"
"Waynitoe","location","-3.705472","128.160145"
"Serikkembelo","location","-3.360917","127.943587"
"Asaudi","location","-3.108677","127.959005"
"onbekend China","location","0","0"
"Dender","location","0","0"
"Fombetokke","location","0","0"
"Baghdad","location","33.33333333","44.43333333"
"Band-e Kong","location","26.597507","54.938321"
"Jiddah","location","21.560393","39.163055"
"Lar","location","27.683832","54.341097"
"Karaikal","location","10.92716","79.837124"
"Bangkok","location","13.73333333","100.5"
"Sukadana","location","-1.229688","109.952431"
"Moti","location","0.433333333","127.4"
"Nussatello","location","0","0"
"Geser","location","-3.882067","130.897236"
"Peng-Hu","location","23.552922","119.547922"
"An-Ping","location","22.996086","120.16561"
"Baliapal","location","21.651365","87.279797"
"Tokai","location","0","0"
"Abanzee","location","5.19421","-1.095471"
"Welgelegen","location","0","0"
"Alphen","location","0","0"
"Tengapatnam, Malabaar","location","8.238291","77.171781"
"Maroantsetra","location","-15.435562","49.739728"
"Kisar","location","-8.083333333","127.2"
"Sermata","location","-8.216666667","128.9166667"
"Vadodara","location","22.312284","73.188801"
"Burhanpur","location","21.310086","76.228623"
"Maldah","location","25.01974","88.136086"
"Mirzapur","location","0","0"
"Sherpur","location","25.015851","90.016515"
"Khanakul","location","0","0"
"Barahanagar","location","22.640987","88.372171"
"Hijili","location","0","0"
"Vishakapatnam","location","17.692764","83.214512"
"Golepallem","location","0","0"
"Shiraz","location","29.620027","52.524834"
"Nagulvancha","location","0","0"
"Narasapur","location","16.434192","81.695695"
"Nizampatnam","location","15.903556","80.666842"
"Irakam","location","0","0"
"St. Thomas","location","13.002718","80.1928"
"Covelong","location","12.787205","80.250093"
"Thiruppapuliyur","location","0","0"
"Tirumullaivasal","location","0","0"
"Nagore","location","10.817288","79.840815"
"Kayalpatnam","location","8.564386","78.125124"
"Vembar","location","0","0"
"Baipar","location","0","0"
"Appuratota","location","0","0"
"Panama","location","6.759397","81.807961"
"Mandagetto","location","0","0"
"Yala","location","6.366666667","81.5"
"Mahagama","location","0","0"
"Walawe","location","0","0"
"Drakenstein","location","0","0"
"Unawatuna","location","0","0"
"Panadura","location","6.713369","79.906468"
"Marawila","location","0","0"
"Kondaichchi","location","0","0"
"Nanaddan","location","0","0"
"Vypin","location","0","0"
"Edappalli","location","0","0"
"Paru","location","8.810948","76.668577"
"Achchuveli","location","0","0"
"Chankanai","location","9.75","79.98333333"
"Chavakachcheri","location","9.659646","80.162637"
"Chundikkulam","location","9.45","80.58333333"
"Elephant Pass","location","9.525697","80.405138"
"Eluthumadduval","location","0","0"
"Kachchai","location","0","0"
"Kattaiveli","location","0","0"
"Kopay","location","0","0"
"Mallakam","location","0","0"
"Manipay","location","0","0"
"Mukamalai","location","0","0"
"Myleddi","location","0","0"
"Navatkuli","location","0","0"
"Pulopallai","location","0","0"
"Putur","location","0","0"
"Tampakamam","location","0","0"
"Tellippalai","location","0","0"
"Udupiddi","location","0","0"
"Uduvil","location","0","0"
"Vaddukoddai","location","0","0"
"Vannarponai","location","0","0"
"Varani","location","0","0"
"Analaitivu","location","9.670646","79.776335"
"Chinco","location","0","0"
"Bungku","location","-2.544815","121.972089"
"Paradeys","location","0","0"
"Witteboomen","location","0","0"
"Abuga","location","0","0"
"Malpa","location","0","0"
"Visserhoek","location","0","0"
"Ash Shihr","location","14.76318","49.606433"
"Bahrein","location","0","0"
"Matuaal","location","0","0"
"Silalauw","location","0","0"
"Daljosaphat","location","0","0"
"Boshof","location","0","0"
"Newland","location","0","0"
"Saccam","location","0","0"
"Castella","location","0","0"
"Pagodinho","location","0","0"
"Nannoe","location","0","0"
"Lumajang","location","-8.132351","113.222258"
"Banyuwangi","location","-8.208984","114.373333"
"Titaway","location","0","0"
"Syriam","location","16.764604","96.244683"
"Ava","location","21.866876","96.016449"
"Martaban","location","16.526126","97.608275"
"Elsjes Coraal","location","0","0"
"Bommelshoek","location","0","0"
"Paardeberg","location","0","0"
"Anjengo","location","8.672182","76.756085"
"Songkhla","location","7.2","100.5833333"
"Hoi An","location","15.878295","108.3166667"
"Kuala Linggi","location","0","0"
"Pangkor","location","0","0"
"Kuala Kedah","location","0","0"
"Phuket","location","7.880726","98.36666667"
"Huangpu","location","23.099944","113.5166667"
"Macao","location","22.18971","113.535962"
"St. Helena eiland","location","-15.925759","-5.717454"
"Tanjung West","location","0","0"
"Pondokgede","location","0","0"
"Cisarua","location","0","0"
"Madeira","location","32.778038","-16.988411"
"Daman","location","20.415028","72.832389"
"Cibinong","location","0","0"
"Hoorn","location","52.64072","5.057781"
"Rotterdam","location","51.91666667","4.483333333"
"Goa (India)","location","15.442015","73.881633"
"Quelimanie","location","0","0"
"Houtbay","location","0","0"
"Mosselbaai","location","0","0"
"Travancore","location","0","0"
"Vierendepatnam","location","0","0"
"St. Paul eiland","location","-38.725965","77.518787"
"Amsterdam eiland","location","-37.824972","77.558556"
"Cocos eilanden","location","0","0"
"Panaitan","location","0","0"
"Indragiri","location","0","0"
"Tarusan","location","0","0"
"Phnom Penh","location","11.58333333","104.9166667"
"Post aan de rivier Manumbagh","location","0","0"
"Raha","location","-4.831424","122.721012"
"Tifore","location","0","0"
"Mayu","location","0","0"
"Kota Tingi","location","1.466858","103.754854"
"Diu","location","20.715376","70.988324"
"S. Luzia","location","0","0"
"Tiruchchirappalli","location","10.8328","78.69401"
"Wancan","location","0","0"
"Verlaatene S.E. Compagnies post","location","-5.983333333","106.100543"
"Girie","location","0","0"
"Tanete","location","-4.541517","120.327044"
"Pantjana","location","0","0"
"Goed Begin, Logie","location","0","0"
"Port Elizabeth","location","-33.958383","25.617099"
"Gogodon","location","0","0"
"Carresoela","location","0","0"
"Abaqua","location","5.033333333","-2.2"
"Ankobra","location","4.883333333","-2.26438522"
"Akwida","location","4.75","-2.05"
"Takoradi","location","4.886501","-1.755459"
"Aggia","location","5.187628","-1.101644"
"Grand Popo","location","6.26812","1.760373"
"Ouidah","location","6.363838","2.083104"
"Kpone","location","5.68781850","0.059566"
"Keta","location","5.908470","0.991430"
"Jaquim","location","6.3407937","2.315526"
"Aneho","location","6.229811","1.590686"
"Offra","location","0","0"
"Save","location","8.033333333","2.483333333"
"Allada","location","6.665204","2.15116"
"Badagri","location","6.415187","2.882094"
"Arguin","location","20.59133073","-16.4623260"
"Portudal","location","14.46666667","-17"
"Rufisque","location","14.71478747","-17.2820091"
"Joal-Fadiout","location","14.17594070","-16.8510532"
"São Tomé","location","0.249938","6.604042"
"Principe","location","1.605854","7.395175"
"Tasso Island","location","8.55623840","-13.0761337"
"Mount, Cape","location","6.75","-11.3667726"
"Agathon","location","0","0"
"Annobon","location","-1.419494","5.632496"
"Benguela","location","-12.577769","13.400738"
"Loango","location","-4.633333333","11.83333333"
"Luanda","location","-8.812009","13.226159"
"Soyo","location","-6.132917","12.367208"
"Cabinda","location","-5.554097","12.189624"
"Malembo","location","-5.336216","12.18632"
"Albany","location","42.649112","-73.758945"
"Rensselaer","location","42.641851","-73.743632"
"Kingston","location","41.933611","-74.019444"
"Yonkers","location","40.932579","-73.899243"
"Jersey City","location","40.71666667","-74.05"
"New York","location","40.709922","-74.009771"
"Harlem","location","40.815108","-73.944912"
"Bergen","location","40.65","-74.13333333"
"Benin City","location","6.332872","5.622658"
"Corisco, Island","location","0.915774","9.318266"
"Mayumba","location","-3.432032","10.652761"
"Factorij J. van Roubergen","location","0","0"
"Freedland","location","40.83333333","-73.86666667"
"Flushing","location","40.762861","-73.833675"
"Maspeth","location","40.75","-73.93333333"
"Bushwick","location","40.695607","-73.921473"
"Flatbush","location","40.641963","-73.961341"
"Brooklyn","location","40.697056","-73.996444"
"Flatlands","location","40.629262","-73.933368"
"Hempstead","location","40.709272","-73.622847"
"Gravesend","location","40.591633","-73.976619"
"Gloucester City","location","39.895382","-75.118876"
"New Castle","location","39.660718","-75.564916"
"Lewes","location","38.776837","-75.143423"
"Burlington Island","location","40.092124","-74.845698"
"Philadelphia","location","39.955807","-75.161276"
"Wilmington","location","39.745833","-75.546667"
"Blommaerts Kil","location","0","0"
"Prince's Island","location","0","0"
"Hartford","location","41.765358","-72.672"
"Willemstad","location","12.105711","-68.933385"
"Otrobanda","location","12.107348","-68.936384"
"Pietermaai","location","12.103466","-68.926347"
"Pos Cabay","location","12.114775","-68.908582"
"St. Kruis","location","12.306015","-69.144613"
"Bullenbaai","location","12.194821","-69.023337"
"Crabbebaai","location","0","0"
"Vaersenbaai","location","12.160895","-69.00454"
"Piscaderabaai","location","12.119977","-68.968184"
"Fuik Baai","location","12.051319","-68.829706"
"Knip Baai","location","12.315761","-69.151236"
"Sint Michielsbaai","location","12.145613","-68.998697"
"Caracasbaai","location","12.073588","-68.861652"
"Philipsburg","location","18.024935","-63.049865"
"Bottom, The","location","17.626272","-63.249335"
"Barbara Strand","location","12.06666667","-68.85"
"Barbudo","location","0","0"
"Slagbaai","location","12.264203","-68.413358"
"Karpata","location","12.220025","-68.352112"
"Barcadera","location","0","0"
"Cabajé","location","0","0"
"Oranjestad","location","17.481917","-62.983861"
"Epe","location","6.580714","3.975134"
"Tumble Down Dick Bay","location","17.500827","-63.000587"
"White Hook","location","17.46666667","-62.96666667"
"Kay Bay","location","17.467938","-62.97798"
"Zeelandia Baai","location","17.507417","-62.981606"
"Back Off Bay","location","17.465236","-62.964268"
"Coculusbaai","location","17.519577","-62.999674"
"Concordia baai","location","17.502956","-62.977229"
"Corre Corre baai","location","17.487546","-62.948647"
"Compagnie Bay","location","17.495752","-62.96223"
"Smoke Alley","location","17.483333","-62.983333"
"Jenkin´s Bay","location","17.512574","-62.999089"
"Signal Hill","location","17.496939","-62.992523"
"Oranjestad Baai","location","17.48204","-62.987303"
"Anguilla","location","18.219894","-63.047848"
"Fort Bay","location","17.616405","-63.251725"
"Tent Bay","location","17.617008","-63.252565"
"Plymouth","location","11.221637","-60.777361"
"Black Rock","location","11.207113","-60.782701"
"Scarborough","location","11.183012","-60.737296"
"Punta de Araya","location","10.573041","-64.256988"
"Isla la Tortuga","location","10.93681","-65.329227"
"Unare rivier","location","0","0"
"Xingu rivier","location","0","0"
"Cajamue eiland","location","0","0"
"Tapajos rivier","location","0","0"
"Paru rivier, post aan de","location","0","0"
"Ilha Grande de Curupá","location","0","0"
"Sao Luís","location","-2.528095","-44.300709"
"Fortaleza","location","-3.724143","-38.525476"
"Natal","location","-5.783638","-35.206904"
"Joao Pessoa","location","-7.117245","-34.886749"
"Cabedelo","location","-6.970049","-34.834864"
"Restinga island","location","-6.992541","-34.858038"
"Itamaracà eiland","location","-7.748074","-34.824046"
"Vila Velha","location","-7.808729","-34.858344"
"Olinda","location","-8.008492","-34.85512"
"Nieuw-Utrecht","location","40.611346","-74.001292"
"Jamaica","location","40.70745","-73.784723"
"State Island","location","40.58333333","-74.13333333"
"Igarassu","location","-7.833123","-34.906023"
"Province Island (?)","location","40.1","-75.25"
"Recife Antigo","location","-8.05481","-34.871042"
"Varzea","location","-8.050094","-34.977171"
"Affogados","location","-8.073931","-34.909236"
"Boavista","location","-8.060844","-34.889073"
"Bom Jesus","location","0","0"
"Cabo de Santo Agostinho","location","-8.266666667","-35"
"Serinhaem","location","-8.590824","-35.116321"
"Rio Formoso","location","-8.583333333","-37.06666667"
"Porto Calvo","location","-9.056594","-35.398556"
"Paripueira","location","-9.466503","-35.546966"
"Santa Luzia do Norte","location","-9.604241","-35.822502"
"Marechal Deodoro","location","-9.717771","-35.899115"
"Penedo","location","-10.285025","-36.558924"
"Sergipe del Rey","location","-11.012455","-37.2133401"
"Salvador","location","-12.96666667","-38.48333333"
"Fernando de Noronha","location","-3.859116","-32.434587"
"Ipojuca","location","-8.399059","-35.063471"
"Chiloè Island","location","-42.66666667","-74"
"Castro","location","-42.482115","-73.763841"
"Valdívia","location","-39.81747","-73.2447187"
"San Juan","location","18.466217","-66.116717"
"Arebo","location","0","0"
"Cambamba","location","-8.166666667","14.75"
"Nieuw Middelburg (Gyuana)","location","0","0"
"Moruka kreek, post aan de","location","0","0"
"Kyk Overal","location","6.386037","-58.681136"
"Cayouni rivier, post aan de","location","0","0"
"Porto Marie","location","12.219506","-69.085425"
"Flag Island","location","6.780577","-58.515723"
"Cartabo","location","0","0"
"Arinda","location","5.872168570","-58.6124023"
"Ampa","location","6.497403","-58.573229"
"Georgetown","location","6.819483","-58.158975"
"Fort Nassau","location","5.75","-57.71666667"
"New Amsterdam","location","6.250374","-57.516103"
"Wironje Kreek, post aan de","location","0","0"
"Hardenbroek, post bij plantage","location","0","0"
"Savonette","location","0","0"
"Aquewayse Post","location","5.470414","-57.956421"
"Jcourouwa, post","location","0","0"
"Plaats zonder naam, Berbice","location","0","0"
"Concordia, post","location","5.716666667","-57.5"
"Apoera","location","5.162882","-57.163203"
"Epira","location","5.13309","-57.333283"
"Hurley","location","41.923834","-74.061334"
"Paramaribo","location","5.828596","-55.153066"
"Houttuin","location","5.75","-55.13333333"
"Charlotteville","location","11.318933","-60.551364"
"Torarica meer","location","5.316666667","-55.01666667"
"Zandpunt","location","0","0"
"Jodensavanne","location","5.427501","-54.90525"
"Pikin Saron?","location","0","0"
"Nieuw Amsterdam (Suriname)","location","5.885547","-55.087817"
"Sommelsdijk","location","5.8161224","-54.864544"
"Prins Willem Frederick","location","0","0"
"Rama","location","5.288443","-55.10264"
"Zeven Provincien","location","0","0"
"Armina","location","0","0"
"Batavia (Suriname)","location","5.71186","-55.876125"
"Brandwacht","location","0","0"
"Coronie","location","5.866666667","-56.31666667"
"Devil's Harwar","location","0","0"
"Gelderland","location","5.451745","-54.986705"
"Groningen","location","5.79649","-55.548105"
"Nieuw Nickerie","location","5.936472","-56.992021"
"Vredenburg","location","0","0"
"Hughesburg","location","0","0"
"De Hoop","location","5.732314","-55.100241"
"Imotappi","location","0","0"
"Mauritsburg","location","0","0"
"Oranjewoud","location","0","0"
"'s-Hertogenbosch","location","0","0"
"Honkoop","location","0","0"
"Republiek","location","5.496302","-55.206048"
"Victoria","location","5.146127","-54.99748"
"Uijtkijk","location","0","0"
"Charlotte Amelia","location","18.341898","-64.933076"
"Christiansted","location","17.74509","-64.704008"
"Tarrytown","location","41.077793","-73.859761"
"Meidorp","location","0","0"
"Comaribo","location","0","0"
"Borslem Island","location","6.599173","-58.216946"
"Aprowaco, post aan de","location","4","-52.5"
"Jan Pietersz. kolonie","location","0","0"
"Wacogenive rivier, post aan de","location","0","0"
"Wiapoco, post aan de","location","0","0"
"Cayenne","location","4.935929","-52.33278"
"St. Anna's dorp","location","12.11666667","-68.91666667"
"Road Town","location","18.423756","-64.620173"
"West End","location","18.387882","-64.697592"
"Mecoria","location","0","0"
"Appa 1","location","0","0"
"Tocujos eiland","location","0","0"
"Tobo","location","0","0"
"Westpunt (Curaçao)","location","12.370353","-69.154454"
"Tamandarè","location","-8.757234","-35.103661"
"Zuidkant","location","18.01666667","-63.06666667"
"Vergenoegd","location","0","0"
"Manila","location","14.604183","120.980358"
"Amsterdam","location","52.372874","4.899158"
"Middelburg","location","51.502118","3.614101"
"Delft","location","0","0"
"Enkhuizen","location","52.703175","5.292306"
"Erangh","location","0","0"
"Bellepatnam","location","0","0"
"Poelezeere","location","0","0"
"Madras","location","0","0"
"Nellore","location","0","0"
"Sadian bon Porte","location","0","0"
"Noordhoek","location","-34.102139","18.381829"
"Bandremoele","location","0","0"
"Tacome","location","0","0"
"onbekend Indonesië","location","0","0"
"Calamatta","location","0","0"
"Karaitivu","location","9.737144","79.876928"
"Werinama","location","-3.547902","130.181115"
"Lucelle","location","0","0"
"Lissidi","location","0","0"
"Seram Laut","location","0","0"
"Aruba","location","12.522391","-69.981766"
"Lisabata","location","-2.85","128.9666667"
"Salouky","location","0","0"
"Hinetelle","location","0","0"
"Sero Lauw","location","0","0"
"Ihamau","location","0","0"
"Point Pedro","location","9.816666667","80.23333333"
"Hoognodig","location","0","0"
"Post aan den berg","location","0","0"
"Paretiture","location","0","0"
"Tenimber","location","0","0"
"Tangail","location","24.249175","89.914681"
"Bhadrackh","location","21.08333333","86.6"
"Tessindia","location","0","0"
"Chittagong","location","22.327767","91.825347"
"Kindua","location","0","0"
"Bijapur","location","16.78333333","75.8"
"Antananarivo","location","-18.911321","47.53026"
"Post aan de rivier Maningaar","location","0","0"
"Marbongh","location","0","0"
"Middelburg","location","0","0"
"St. Louis","location","16.02407699","-16.4970334"
"Rajbagh","location","0","0"
"Adams Peak","location","0","0"
"Canjé rivier, post aan de","location","0","0"
